{
  "shops": [
    {
      "shopId": "shop123",
      "name": "Shop Name 1",
      "address": {
        "street": "123 Main St",
        "city": "Los Angeles",
        "state": "California",
        "zip": "90001",
        "geoLocation": {
          "type": "Point",
          "coordinates": [-118.2437, 34.0522]
        }
      },
      "phoneNumber": "+15551234567",
      "openingHours": {
        "monday": "9:00-18:00",
        "tuesday": "9:00-18:00",
        "wednesday": "9:00-18:00",
        "thursday": "9:00-18:00",
        "friday": "9:00-20:00",
        "saturday": "10:00-20:00",
        "sunday": "10:00-16:00"
      },
      "categories": ["Clothing", "Accessories"],
      "deliveryRadius": 10,
      "minimumOrderValue": 20,
      "deliveryCharges": 5,
      "averageDeliveryTime": 30,
      "rating": 4.5,
      "totalReviews": 100,
      "isActive": true,
      "createdAt": "2024-10-26T10:00:00Z",
      "updatedAt": "2024-10-26T10:00:00Z"
    },
    {
      "shopId": "shop456",
      "name": "Shop Name 2",
      "address": {
        "street": "456 Elm St",
        "city": "Austin",
        "state": "Texas",
        "zip": "78701",
        "geoLocation": {
          "type": "Point",
          "coordinates": [-97.7431, 30.2672]
        }
      },
      "phoneNumber": "+15559876543",
      "openingHours": {
        "monday": "10:00-19:00",
        "tuesday": "10:00-19:00",
        "wednesday": "10:00-19:00",
        "thursday": "10:00-19:00",
        "friday": "10:00-20:00",
        "saturday": "11:00-20:00",
        "sunday": "11:00-17:00"
      },
      "categories": ["Shoes", "Bags"],
      "deliveryRadius": 15,
      "minimumOrderValue": 15,
      "deliveryCharges": 7,
      "averageDeliveryTime": 45,
      "rating": 4.2,
      "totalReviews": 50,
      "isActive": true,
      "createdAt": "2024-10-26T10:00:00Z",
      "updatedAt": "2024-10-26T10:00:00Z"
    },
    {
      "shopId": "shop789",
      "name": "Shop Name 3",
      "address": {
        "street": "789 Oak St",
        "city": "Miami",
        "state": "Florida",
        "zip": "33101",
        "geoLocation": {
          "type": "Point",
          "coordinates": [-80.1918, 25.7617]
        }
      },
      "phoneNumber": "+15551112222",
      "openingHours": {
        "monday": "11:00-20:00",
        "tuesday": "11:00-20:00",
        "wednesday": "11:00-20:00",
        "thursday": "11:00-20:00",
        "friday": "11:00-21:00",
        "saturday": "12:00-21:00",
        "sunday": "12:00-18:00"
      },
      "categories": ["Clothing", "Shoes"],
      "deliveryRadius": 8,
      "minimumOrderValue": 25,
      "deliveryCharges": 6,
      "averageDeliveryTime": 35,
      "rating": 4.0,
      "totalReviews": 75,
      "isActive": true,
      "createdAt": "2024-10-26T10:00:00Z",
      "updatedAt": "2024-10-26T10:00:00Z"
    }
  ]
}
